[{"id":1,"name":"Gigabox","phone":"9884006212","streetAddress":"148 Mallard Hill","city":"Ribeiro","location":[{"latitude":22.879493,"longitude":36.0444446}]},
{"id":2,"name":"Jaloo","phone":"8866116679","streetAddress":"26318 Oak Junction","city":"Goranboy","location":[{"latitude":-7.7403739,"longitude":-30.2609293}]},
{"id":3,"name":"Eadel","phone":"3727758064","streetAddress":"9 Coolidge Road","city":"Newmarket","location":[{"latitude":53.171935,"longitude":-8.6182236}]},
{"id":4,"name":"Gigaclub","phone":"7685012619","streetAddress":"0 Red Cloud Circle","city":"Rossosh’","location":[{"latitude":7.7849087,"longitude":55.4872242}]},
{"id":5,"name":"Bubblemix","phone":"5866535660","streetAddress":"5679 Hansons Crossing","city":"Hinlayagan Ilaud","location":[{"latitude":36.8466981,"longitude":8.3102946}]},
{"id":6,"name":"Talane","phone":"8363107128","streetAddress":"83983 Carberry Center","city":"Pereiros","location":[{"latitude":58.0312993,"longitude":-2.9492205}]},
{"id":7,"name":"Dynabox","phone":"2964591837","streetAddress":"0427 Tennyson Drive","city":"Itamarandiba","location":[{"latitude":34.7836044,"longitude":-0.8922447}]},
{"id":8,"name":"Wordware","phone":"7433698311","streetAddress":"92072 Talisman Junction","city":"Wielka Wieś","location":[{"latitude":-20.1851206,"longitude":36.617134}]},
{"id":9,"name":"Plambee","phone":"1868199007","streetAddress":"30653 Loftsgordon Circle","city":"Konyshevka","location":[{"latitude":10.1315305,"longitude":43.817071}]},
{"id":10,"name":"Skimia","phone":"4167494643","streetAddress":"0185 Morning Place","city":"Jatipamor","location":[{"latitude":-6.3811392,"longitude":51.6991519}]},
{"id":11,"name":"Zoombeat","phone":"9411284075","streetAddress":"1164 Acker Pass","city":"Pojok","location":[{"latitude":32.748741,"longitude":33.4484729}]},
{"id":12,"name":"Gabvine","phone":"2158367802","streetAddress":"3118 Anthes Way","city":"Xiang Ngeun","location":[{"latitude":59.9026039,"longitude":-28.71667}]},
{"id":13,"name":"Roombo","phone":"6409700951","streetAddress":"2 John Wall Trail","city":"Barreirinhas","location":[{"latitude":40.3821458,"longitude":-6.3414379}]},
{"id":14,"name":"Kimia","phone":"9735514405","streetAddress":"6117 Coolidge Pass","city":"Tandil","location":[{"latitude":46.67159,"longitude":43.7755615}]},
{"id":15,"name":"Jaloo","phone":"6997105862","streetAddress":"4258 Schmedeman Alley","city":"Kumagaya","location":[{"latitude":34.1956019,"longitude":49.1790652}]},
{"id":16,"name":"Lazzy","phone":"3252617520","streetAddress":"67965 Washington Alley","city":"Pyatnitskoye","location":[{"latitude":7.18016,"longitude":50.756497}]},
{"id":17,"name":"Jaxbean","phone":"7729939298","streetAddress":"75 Upham Trail","city":"Pangal Sur","location":[{"latitude":20.1871897,"longitude":59.4443693}]},
{"id":18,"name":"Camimbo","phone":"2048300271","streetAddress":"70662 Burrows Circle","city":"Jasienica","location":[{"latitude":-34.7277137,"longitude":-22.817412}]},
{"id":19,"name":"Nlounge","phone":"5905918596","streetAddress":"21 Golf Drive","city":"Stockholm","location":[{"latitude":15.9866126,"longitude":-10.116667}]},
{"id":20,"name":"Oloo","phone":"8321722844","streetAddress":"35668 Golf View Crossing","city":"Pýrgos","location":[{"latitude":-6.721769,"longitude":14.565396}]},
{"id":21,"name":"Dazzlesphere","phone":"4621266183","streetAddress":"9553 Sutteridge Drive","city":"Oskarshamn","location":[{"latitude":18.44,"longitude":5.623505}]},
{"id":22,"name":"Divanoodle","phone":"3841982997","streetAddress":"05 David Alley","city":"Kasakh","location":[{"latitude":31.154122,"longitude":51.1691046}]},
{"id":23,"name":"Feedfish","phone":"3695060501","streetAddress":"07086 Superior Drive","city":"Pont-Rouge","location":[{"latitude":51.4197881,"longitude":69.64914}]},
{"id":24,"name":"Kwimbee","phone":"3311927656","streetAddress":"50403 Lerdahl Pass","city":"Harbour Breton","location":[{"latitude":33.4955028,"longitude":-10.2043297}]},
{"id":25,"name":"Avamba","phone":"4184160994","streetAddress":"17 Pine View Drive","city":"Yuewan","location":[{"latitude":41.2717724,"longitude":35.5445563}]},
{"id":26,"name":"Centidel","phone":"9742354625","streetAddress":"94 Vera Point","city":"Koronowo","location":[{"latitude":50.2650642,"longitude":-24.0088421}]},
{"id":27,"name":"Skipstorm","phone":"2285083667","streetAddress":"78 Toban Avenue","city":"Xiangshan","location":[{"latitude":49.5856494,"longitude":50.2044695}]},
{"id":28,"name":"Wordtune","phone":"8592351560","streetAddress":"74062 Sloan Court","city":"Kanbula","location":[{"latitude":47.0739574,"longitude":-1.5117336}]},
{"id":29,"name":"Meemm","phone":"2987427662","streetAddress":"285 Arizona Plaza","city":"Pushchino","location":[{"latitude":41.468342,"longitude":42.5448774}]},
{"id":30,"name":"Thoughtblab","phone":"1118097159","streetAddress":"05802 Petterle Center","city":"Pingyi","location":[{"latitude":59.1930889,"longitude":29.420261}]},
{"id":31,"name":"Feedspan","phone":"9767913280","streetAddress":"3422 Blaine Junction","city":"Bayt Dajan","location":[{"latitude":19.1229045,"longitude":45.2497275}]},
{"id":32,"name":"Lajo","phone":"3983575846","streetAddress":"8 Victoria Circle","city":"Caazapá","location":[{"latitude":14.5742165,"longitude":36.795091}]},
{"id":33,"name":"Photojam","phone":"3543339754","streetAddress":"20 Golf Crossing","city":"Costa Sacate","location":[{"latitude":50.6283477,"longitude":15.9769657}]},
{"id":34,"name":"Zoombeat","phone":"3128616439","streetAddress":"833 Brentwood Lane","city":"Tuanchengshan","location":[{"latitude":-32.9395437,"longitude":43.3362822}]},
{"id":35,"name":"Realcube","phone":"9498897459","streetAddress":"3 Artisan Place","city":"Masoli","location":[{"latitude":35.275,"longitude":-23.8139412}]},
{"id":36,"name":"Babbleblab","phone":"5667421624","streetAddress":"3491 Nova Point","city":"Sahline","location":[{"latitude":-7.5450262,"longitude":65.957138}]},
{"id":37,"name":"Avavee","phone":"8055140900","streetAddress":"7669 Spohn Point","city":"Thạnh Phú","location":[{"latitude":55.3071219,"longitude":47.5139827}]},
{"id":38,"name":"Topicstorm","phone":"3257848439","streetAddress":"313 Ohio Point","city":"Kruševo","location":[{"latitude":52.125546,"longitude":55.7711328}]},
{"id":39,"name":"Kamba","phone":"8165093305","streetAddress":"9 Independence Hill","city":"Limboto","location":[{"latitude":35.0422194,"longitude":5.7511525}]},
{"id":40,"name":"Jaloo","phone":"9577488388","streetAddress":"0 Portage Road","city":"Xinhua","location":[{"latitude":27.569678,"longitude":15.475069}]},
{"id":41,"name":"Twiyo","phone":"6107800753","streetAddress":"842 Knutson Court","city":"Lubomierz","location":[{"latitude":-7.377892,"longitude":48.7471816}]},
{"id":42,"name":"Youspan","phone":"7454991884","streetAddress":"06370 Loeprich Park","city":"Ventanas","location":[{"latitude":35.4731712,"longitude":45.6592536}]},
{"id":43,"name":"Divanoodle","phone":"6968860343","streetAddress":"9238 Warbler Junction","city":"Jajce","location":[{"latitude":39.9224685,"longitude":58.8144355}]},
{"id":44,"name":"Miboo","phone":"1619523361","streetAddress":"639 South Street","city":"Tanjungpecinan Utara","location":[{"latitude":45.4934392,"longitude":56.2960315}]},
{"id":45,"name":"Quatz","phone":"7433005456","streetAddress":"3 International Trail","city":"Kotel","location":[{"latitude":38.6169978,"longitude":54.000556}]},
{"id":46,"name":"Yata","phone":"1377819623","streetAddress":"429 Ruskin Circle","city":"Cobre","location":[{"latitude":37.5972313,"longitude":-6.2686878}]},
{"id":47,"name":"Kazu","phone":"9128553441","streetAddress":"7 Shoshone Plaza","city":"Kallithéa","location":[{"latitude":55.8389853,"longitude":-6.3413734}]},
{"id":48,"name":"Dynazzy","phone":"7179704228","streetAddress":"66793 Chinook Court","city":"Paris La Défense","location":[{"latitude":4.6333268,"longitude":18.649728}]},
{"id":49,"name":"Wikizz","phone":"3268981053","streetAddress":"631 Milwaukee Junction","city":"Clarence-Rockland","location":[{"latitude":24.1477358,"longitude":30.640814}]},
{"id":50,"name":"Gigaclub","phone":"2654170568","streetAddress":"1923 Bluestem Park","city":"Vetrino","location":[{"latitude":29.7444645,"longitude":28.4499078}]}]